City,Lat,Lng,Max Temp,Humidity,Cloudiness,Wind Speed,Country Code
castro,-24.7911,-50.0119,293.56,79.0,1.0,2.97,BR
fortuna,40.5982,-124.1573,284.82,93.0,90.0,5.66,US
mar del plata,-38.0023,-57.5575,293.71,100.0,75.0,1.54,AR
hermanus,-34.4187,19.2345,295.37,44.0,74.0,1.79,ZA
korla,41.7597,86.1469,278.1,62.0,36.0,2.32,CN
avarua,-21.2078,-159.775,298.15,94.0,75.0,1.03,CK
sibolga,1.7427,98.7792,300.23,76.0,79.0,0.67,ID
new norfolk,-42.7826,147.0587,288.71,73.0,94.0,0.9,AU
ballina,-28.8667,153.5667,296.15,68.0,75.0,5.66,AU
busselton,-33.65,115.3333,297.04,86.0,5.0,1.79,AU
hasaki,35.7333,140.8333,285.15,81.0,20.0,2.57,JP
uvinza,-5.1036,30.3911,299.78,68.0,57.0,1.25,TZ
vaini,-21.2,-175.2,296.15,94.0,20.0,4.27,TO
maniitsoq,65.4167,-52.9,257.93,89.0,99.0,5.57,GL
punta arenas,-53.15,-70.9167,283.15,66.0,75.0,6.17,CL
elizabeth city,36.2946,-76.2511,277.15,93.0,90.0,6.17,US
mogzon,51.7435,111.9606,249.55,84.0,79.0,3.21,RU
poum,-20.2333,164.0167,300.47,75.0,14.0,4.69,NC
hamilton,39.1834,-84.5333,265.37,79.0,90.0,6.17,US
georgetown,5.4112,100.3354,305.15,58.0,20.0,3.09,MY
saldanha,-33.0117,17.9442,297.15,33.0,0.0,9.26,ZA
hobart,-42.8794,147.3294,289.15,77.0,75.0,2.57,AU
colares,38.7992,-9.4469,290.37,59.0,0.0,10.29,PT
hithadhoo,-0.6,73.0833,301.72,70.0,7.0,3.36,MV
eureka,40.8021,-124.1637,284.82,98.0,100.0,1.79,US
rikitea,-23.1203,-134.9692,299.61,78.0,98.0,6.21,PF
heidelberg,-26.5048,28.3592,302.04,73.0,41.0,5.08,ZA
airai,-8.9266,125.4092,289.7,100.0,100.0,0.81,TL
vila velha,-20.3297,-40.2925,301.15,69.0,0.0,6.17,BR
olafsvik,64.8945,-23.7142,278.79,83.0,87.0,11.99,IS
san patricio,28.017,-97.5169,265.15,79.0,75.0,8.23,US
vestmannaeyjar,63.4427,-20.2734,280.15,87.0,75.0,9.77,IS
yellowknife,62.456,-114.3525,251.48,77.0,1.0,5.66,CA
khasan,42.4308,130.6434,264.0,84.0,100.0,10.87,RU
pontianak,-0.0333,109.3333,300.15,78.0,40.0,2.06,ID
souillac,-20.5167,57.5167,303.15,66.0,75.0,6.69,MU
severo-kurilsk,50.6789,156.125,267.5,90.0,78.0,3.07,RU
chokurdakh,70.6333,147.9167,247.01,87.0,94.0,1.28,RU
flinders,-34.5833,150.8552,292.59,88.0,100.0,1.79,AU
jacareacanga,-6.2222,-57.7528,296.71,95.0,100.0,1.0,BR
vysokogornyy,50.1167,139.15,258.92,93.0,97.0,2.22,RU
ouadda,8.0777,22.4007,316.05,9.0,75.0,1.26,CF
haines junction,60.7522,-137.5108,236.15,67.0,61.0,0.15,CA
batemans bay,-35.7167,150.1833,292.04,85.0,83.0,1.34,AU
nikolskoye,59.7035,30.7861,262.04,79.0,75.0,3.0,RU
khatanga,71.9667,102.5,235.48,81.0,0.0,2.07,RU
port elizabeth,-33.918,25.5701,296.15,49.0,40.0,14.4,ZA
auburn,47.3073,-122.2284,274.82,86.0,90.0,7.2,US
albany,42.6001,-73.9662,267.59,61.0,98.0,1.72,US
ribeira grande,38.5167,-28.7,285.15,71.0,40.0,6.69,PT
amparafaravola,-17.5833,48.2167,297.45,76.0,100.0,0.6,MG
arraial do cabo,-22.9661,-42.0278,299.15,83.0,75.0,2.57,BR
kodiak,57.79,-152.4072,275.15,93.0,90.0,1.34,US
ponta do sol,32.6667,-17.1,291.15,72.0,40.0,6.17,PT
mount isa,-20.7333,139.5,299.15,69.0,100.0,5.88,AU
mataura,-46.1927,168.8643,282.59,78.0,84.0,2.24,NZ
iqaluit,63.7506,-68.5145,255.15,85.0,90.0,0.8,CA
bilibino,68.0546,166.4372,253.52,88.0,86.0,0.36,RU
hofn,64.2539,-15.2082,279.15,93.0,75.0,6.69,IS
jamestown,42.097,-79.2353,265.93,86.0,90.0,1.92,US
muros,42.7762,-9.0603,293.15,57.0,91.0,5.81,ES
hilo,19.7297,-155.09,293.15,77.0,1.0,1.54,US
kut chap,17.4257,102.5669,304.82,39.0,0.0,1.54,TH
butaritari,3.0707,172.7902,299.81,77.0,77.0,6.64,KI
sao joao da barra,-21.6403,-41.0511,299.15,83.0,0.0,2.06,BR
coquimbo,-29.9533,-71.3436,289.15,82.0,90.0,2.06,CL
atuona,-9.8,-139.0333,298.81,77.0,61.0,4.89,PF
geraldton,-28.7667,114.6,297.15,83.0,0.0,4.63,AU
kholtoson,50.2981,103.3097,253.68,85.0,13.0,1.0,RU
kailua,21.4022,-157.7394,294.15,88.0,1.0,1.54,US
caiaponia,-16.9567,-51.8103,296.05,86.0,100.0,3.15,BR
saint-philippe,-21.3585,55.7679,302.15,65.0,75.0,2.06,RE
cherskiy,68.75,161.3,249.19,90.0,95.0,1.41,RU
upernavik,72.7868,-56.1549,253.2,91.0,98.0,2.93,GL
kortkeros,61.8106,51.5806,252.15,71.0,40.0,3.0,RU
iskateley,67.6803,53.1512,246.71,88.0,100.0,3.95,RU
cabo san lucas,22.8909,-109.9124,288.15,71.0,1.0,0.45,MX
khalilabad,26.775,83.0736,297.15,53.0,1.0,2.06,IN
dikson,73.5069,80.5464,241.27,84.0,100.0,3.84,RU
kahului,20.8947,-156.47,296.15,88.0,90.0,5.14,US
angoche,-16.2325,39.9086,304.31,66.0,100.0,6.61,MZ
talnakh,69.4865,88.3972,240.99,77.0,17.0,3.42,RU
ushuaia,-54.8,-68.3,285.15,58.0,75.0,7.2,AR
karlshus,59.352,10.8723,269.15,80.0,20.0,2.57,NO
yenagoa,4.9247,6.2642,305.95,61.0,73.0,1.37,NG
kununurra,-15.7667,128.7333,302.15,72.0,40.0,2.57,AU
laguna,38.421,-121.4238,283.15,87.0,90.0,4.63,US
narsaq,60.9167,-46.05,269.15,86.0,90.0,3.6,GL
lamesa,32.7376,-101.951,257.04,81.0,81.0,1.34,US
north bend,43.4065,-124.2243,284.26,100.0,90.0,7.2,US
husavik,66.0449,-17.3389,278.15,70.0,20.0,5.66,IS
yar-sale,66.8333,70.8333,248.5,89.0,100.0,6.82,RU
high level,58.5169,-117.136,252.15,77.0,75.0,2.06,CA
nuevo imperial,-13.0754,-76.3172,295.01,70.0,5.0,1.43,PE
cidreira,-30.1811,-50.2056,294.73,83.0,72.0,2.8,BR
misratah,32.3754,15.0925,284.22,59.0,36.0,11.36,LY
norman wells,65.282,-126.8329,251.15,77.0,75.0,2.06,CA
touros,-5.1989,-35.4608,303.15,66.0,40.0,6.17,BR
bredasdorp,-34.5322,20.0403,296.15,35.0,22.0,6.69,ZA
barrow,71.2906,-156.7887,247.15,76.0,1.0,4.63,US
ningbo,29.8782,121.5495,283.15,76.0,75.0,4.0,CN
hakkari,37.5833,44.1667,275.15,69.0,20.0,1.54,TR
cheyenne,41.14,-104.8203,252.15,77.0,90.0,3.6,US
tura,25.5198,90.2201,291.98,29.0,0.0,0.76,IN
east london,-33.0153,27.9116,295.15,53.0,20.0,13.89,ZA
pisco,-13.7,-76.2167,293.15,83.0,0.0,1.54,PE
ostrovnoy,68.0531,39.5131,268.15,94.0,100.0,5.0,RU
lebu,-37.6167,-73.65,287.38,73.0,0.0,4.48,CL
calatagan,13.8833,120.65,298.69,81.0,72.0,4.39,PH
verkhnevilyuysk,63.4453,120.3167,247.36,89.0,100.0,2.46,RU
saskylakh,71.9167,114.0833,243.1,86.0,100.0,5.34,RU
popondetta,-8.7537,148.2534,297.57,89.0,100.0,1.3,PG
torbay,47.6666,-52.7314,269.82,74.0,75.0,7.2,CA
carnarvon,-24.8667,113.6333,301.15,78.0,0.0,7.2,AU
vostok,46.4856,135.8833,257.32,95.0,100.0,1.65,RU
manjacaze,-24.7117,33.8828,302.51,74.0,24.0,4.6,MZ
kapaa,22.0752,-159.319,292.15,94.0,1.0,3.09,US
guajara,-2.9667,-57.6667,297.27,95.0,96.0,0.79,BR
mahebourg,-20.4081,57.7,303.15,66.0,75.0,6.69,MU
constitucion,-35.3333,-72.4167,287.8,79.0,0.0,2.55,CL
bowen,-20.0167,148.2333,297.15,94.0,90.0,3.09,AU
obidos,-1.9175,-55.5181,297.37,95.0,100.0,0.32,BR
labuhan,-6.8844,112.2051,299.92,84.0,100.0,4.6,ID
suoyarvi,62.0833,32.35,260.4,95.0,77.0,3.58,RU
port lincoln,-34.7333,135.8667,292.4,71.0,8.0,4.42,AU
bambous virieux,-20.3428,57.7575,303.15,66.0,75.0,6.69,MU
cap malheureux,-19.9842,57.6142,302.04,68.0,69.0,2.24,MU
carutapera,-1.195,-46.02,298.76,92.0,100.0,2.8,BR
praia,14.9215,-23.5087,299.15,44.0,0.0,9.26,CV
richards bay,-28.783,32.0377,298.07,91.0,93.0,8.34,ZA
puerto escondido,15.85,-97.0667,293.88,54.0,0.0,3.68,MX
lata,40.1629,-8.3327,292.04,56.0,94.0,6.26,PT
porto novo,6.4965,2.6036,305.15,70.0,20.0,4.12,BJ
pacific grove,36.6177,-121.9166,285.37,100.0,90.0,2.57,US
puerto cabezas,14.0351,-83.3888,296.91,89.0,23.0,0.35,NI
bethel,41.3712,-73.414,271.48,69.0,90.0,2.57,US
murgab,37.4966,61.9714,296.15,25.0,0.0,5.14,TM
redlands,34.0556,-117.1825,282.04,61.0,1.0,0.58,US
mecca,21.4267,39.8261,304.87,32.0,1.0,4.98,SA
poya,-21.35,165.15,298.42,81.0,50.0,2.04,NC
matara,5.9485,80.5353,299.94,80.0,77.0,0.98,LK
necochea,-38.5473,-58.7368,291.48,91.0,100.0,4.92,AR
canguaretama,-6.38,-35.1289,302.15,70.0,75.0,6.17,BR
shakawe,-18.3667,21.85,302.9,51.0,40.0,4.26,BW
port alfred,-33.5906,26.891,296.48,69.0,84.0,5.36,ZA
meulaboh,4.1363,96.1285,301.03,75.0,38.0,0.76,ID
mindelo,16.8901,-24.9804,297.15,60.0,75.0,12.86,CV
puerto ayora,-0.7393,-90.3518,297.04,96.0,100.0,0.45,EC
tuktoyaktuk,69.4541,-133.0374,243.68,88.0,77.0,2.29,CA
hervey bay,-25.2986,152.8535,296.48,80.0,32.0,0.45,AU
bayan,46.0833,127.4,250.87,89.0,68.0,3.5,CN
auki,-8.7676,160.7034,299.46,86.0,70.0,2.66,SB
caronport,50.4501,-105.8179,243.15,69.0,37.0,4.12,CA
barra do garcas,-15.89,-52.2567,297.06,87.0,100.0,1.27,BR
gola gokarannath,28.0833,80.4667,296.37,36.0,0.0,3.72,IN
komsomolskiy,40.4272,71.7189,289.15,29.0,0.0,1.03,UZ
atbasar,51.8,68.3333,271.58,98.0,100.0,1.19,KZ
norrtalje,59.758,18.705,271.15,50.0,0.0,4.63,SE
ndola,-12.9587,28.6366,299.8,56.0,28.0,4.66,ZM
klaksvik,62.2266,-6.589,280.15,100.0,75.0,6.69,FO
kaseda,31.4167,130.3167,285.15,58.0,40.0,9.77,JP
namatanai,-3.6667,152.4333,300.6,82.0,100.0,3.65,PG
gympie,-26.1898,152.665,292.59,93.0,23.0,0.45,AU
buchanan,5.8808,-10.0467,303.5,65.0,24.0,2.78,LR
xinmin,41.9908,122.8253,261.15,61.0,0.0,2.0,CN
ryotsu,38.0833,138.4333,283.15,100.0,75.0,9.26,JP
goderich,43.7501,-81.7165,264.15,86.0,100.0,3.6,CA
junnar,19.2,73.8833,302.24,24.0,0.0,4.24,IN
newburyport,42.8126,-70.8773,271.48,74.0,97.0,2.68,US
san pedro,14.35,121.0167,300.15,74.0,75.0,3.09,PH
adrar,20.5022,-10.0711,299.39,16.0,0.0,11.13,MR
taonan,45.3333,122.7833,259.81,65.0,81.0,2.05,CN
bengkulu,-3.8004,102.2655,299.76,83.0,71.0,1.18,ID
ransang,8.9603,117.5828,298.48,73.0,76.0,2.02,PH
tual,-5.6667,132.75,301.29,77.0,100.0,7.96,ID
buala,-8.145,159.5921,300.12,82.0,82.0,2.41,SB
arkhangelsk,64.5401,40.5433,255.15,78.0,40.0,2.0,RU
karratha,-20.7377,116.8463,301.21,72.0,50.0,6.08,AU
longyearbyen,78.2186,15.6401,268.15,80.0,75.0,2.06,SJ
aginskoye,51.1,114.53,250.0,84.0,87.0,4.24,RU
nekrasovskaya,45.1447,39.7487,267.59,86.0,90.0,5.0,RU
berlevag,70.8578,29.0864,272.15,64.0,20.0,6.17,NO
vardo,70.3705,31.1107,272.15,69.0,75.0,7.2,NO
port blair,11.6667,92.75,300.15,83.0,75.0,2.06,IN
tucuman,-26.8241,-65.2226,297.15,78.0,75.0,2.06,AR
chuy,-33.6971,-53.4616,295.93,84.0,72.0,1.8,UY
cape town,-33.9258,18.4232,297.59,37.0,20.0,8.75,ZA
bluff,-46.6,168.3333,282.59,78.0,56.0,2.24,NZ
waipawa,-41.4122,175.5153,288.15,100.0,75.0,9.77,NZ
bezenchuk,52.982,49.4333,255.79,92.0,3.0,3.43,RU
la ronge,55.1001,-105.2842,240.15,68.0,0.0,0.51,CA
mongo,12.1844,18.693,310.61,9.0,42.0,3.16,TD
grand haven,43.0631,-86.2284,260.37,66.0,90.0,5.14,US
belaya gora,68.5333,146.4167,239.84,85.0,1.0,1.59,RU
arinos,-15.9169,-46.1056,298.24,80.0,98.0,0.93,BR
lake charles,30.2131,-93.2044,271.15,86.0,90.0,6.17,US
stornoway,58.2093,-6.3865,282.15,87.0,75.0,8.75,GB
thompson,55.7435,-97.8558,245.15,83.0,20.0,2.06,CA
lavrentiya,65.5833,-171.0,247.3,84.0,0.0,5.01,RU
moranbah,-22.0016,148.0466,298.47,73.0,19.0,6.3,AU
raahe,64.6833,24.4833,269.15,93.0,90.0,4.63,FI
half moon bay,37.4636,-122.4286,285.15,100.0,90.0,3.6,US
naryan-mar,67.6713,53.087,246.87,88.0,100.0,3.98,RU
kuching,1.55,110.3333,300.15,74.0,20.0,2.06,MY
karaton,-6.3424,106.1045,303.71,78.0,40.0,2.57,ID
manicore,-5.8092,-61.3003,297.25,95.0,100.0,0.48,BR
te anau,-45.4167,167.7167,281.8,87.0,72.0,2.95,NZ
wasilla,61.5814,-149.4394,265.93,79.0,90.0,0.93,US
esil,51.9556,66.4042,268.67,96.0,100.0,1.53,KZ
san cristobal,7.7669,-72.225,296.15,100.0,75.0,1.03,VE
acapulco,16.8634,-99.8901,292.11,72.0,2.0,2.03,MX
victoria,22.2855,114.1577,294.82,73.0,58.0,5.25,HK
nsoko,-27.0333,31.95,304.15,70.0,82.0,3.6,SZ
tahta,26.7693,31.5021,295.15,35.0,0.0,4.12,EG
nauen,52.607,12.8737,274.82,47.0,100.0,1.34,DE
selfoss,63.9331,-20.9971,277.59,98.0,81.0,4.92,IS
pevek,69.7008,170.3133,245.08,86.0,33.0,0.73,RU
tuatapere,-46.1333,167.6833,282.59,78.0,84.0,2.24,NZ
faanui,-16.4833,-151.75,300.59,76.0,90.0,4.9,PF
shimoda,34.6667,138.95,282.59,78.0,0.0,1.34,JP
ahipara,-35.1667,173.1667,293.73,88.0,100.0,10.68,NZ
saint george,37.1041,-113.5841,276.48,60.0,90.0,1.54,US
camacha,33.0833,-16.3333,290.15,72.0,40.0,5.14,PT
ancud,-41.8697,-73.8203,282.15,76.0,0.0,2.06,CL
severnyy,50.677,36.5532,264.15,62.0,40.0,4.0,RU
storm lake,42.6411,-95.2097,244.15,76.0,1.0,4.63,US
porto santo,33.072,-16.3415,290.15,72.0,40.0,5.14,PT
mayo,38.8876,-76.5119,275.37,80.0,90.0,3.09,US
aqtobe,50.2797,57.2072,265.15,79.0,75.0,4.0,KZ
ellisras,-23.6649,27.7443,305.64,39.0,53.0,2.96,ZA
iquique,-20.2208,-70.1431,294.15,56.0,0.0,1.03,CL
teguldet,57.3064,88.1667,269.25,98.0,100.0,4.46,RU
zumpahuacan,18.9,-99.55,283.15,74.0,1.0,2.57,MX
sarangani,5.4033,125.4636,301.32,76.0,100.0,4.4,PH
katsuura,35.1333,140.3,289.15,63.0,20.0,14.92,JP
crotone,39.0851,17.1178,278.15,48.0,75.0,12.86,IT
jiexiu,37.0244,111.9125,276.25,55.0,17.0,4.77,CN
tevaitoa,-16.7833,-151.5,300.69,74.0,100.0,4.97,PF
alamosa,37.4695,-105.87,257.15,85.0,90.0,2.48,US
querfurt,51.3833,11.6,275.37,55.0,100.0,4.66,DE
gonbad-e qabus,37.25,55.1672,290.15,55.0,0.0,2.06,IR
leningradskiy,69.3833,178.4167,247.1,87.0,17.0,2.08,RU
zaragoza,41.6561,-0.8773,285.37,81.0,90.0,4.12,ES
yuanping,38.7153,112.7575,274.34,63.0,0.0,0.42,CN
guerrero negro,27.9769,-114.0611,285.76,85.0,26.0,3.96,MX
cabrera,19.6426,-69.9049,296.15,94.0,40.0,7.22,DO
yulara,-25.2406,130.9889,303.15,23.0,29.0,3.6,AU
birobidzhan,48.8,132.95,257.51,88.0,100.0,2.78,RU
santiago del estero,-27.7951,-64.2615,300.93,62.0,72.0,3.58,AR
deputatskiy,69.3,139.9,242.84,89.0,94.0,1.19,RU
saurimo,-9.6608,20.3916,305.15,48.0,40.0,0.77,AO
tiksi,71.6872,128.8694,249.16,90.0,100.0,4.61,RU
ybycui,-26.0167,-57.05,299.56,68.0,21.0,1.88,PY
wanning,18.8003,110.3967,292.53,75.0,22.0,1.56,CN
nishihara,26.1842,127.7558,291.15,51.0,75.0,6.17,JP
kavieng,-2.5744,150.7967,301.81,77.0,78.0,4.6,PG
tasiilaq,65.6145,-37.6368,272.15,100.0,90.0,3.09,GL
nyuksenitsa,60.4128,44.2397,254.37,90.0,81.0,3.74,RU
hirara,24.8,125.2833,291.15,68.0,40.0,3.6,JP
mangrol,21.1167,70.1167,297.56,60.0,0.0,5.11,IN
qui nhon,13.7667,109.2333,293.86,78.0,53.0,2.36,VN
saint-augustin,51.226000000000006,-58.6502,252.94,86.0,21.0,3.85,CA
lojt kirkeby,55.0833,9.4667,273.71,51.0,75.0,5.14,DK
xiongyue,40.1774,122.1228,267.73,68.0,0.0,0.8,CN
la paz,-16.5,-68.15,278.15,75.0,75.0,1.03,BO
galich,58.3797,42.3475,256.94,90.0,75.0,3.87,RU
noyabrsk,63.1994,75.4507,254.37,92.0,100.0,7.19,RU
vanavara,60.34,102.2797,239.57,83.0,43.0,0.68,RU
lima,-12.0432,-77.0282,294.26,88.0,0.0,2.06,PE
clyde river,70.4692,-68.5914,244.15,76.0,0.0,2.57,CA
takoradi,4.8845,-1.7554,302.25,75.0,69.0,4.11,GH
kavaratti,10.5669,72.642,300.87,58.0,7.0,2.03,IN
abu dhabi,24.4667,54.3667,299.15,57.0,0.0,4.12,AE
goure,13.9835,10.2704,305.93,8.0,0.0,4.47,NE
lagoa,39.05,-27.9833,285.59,67.0,2.0,10.63,PT
skrunda,56.6833,22.0167,271.15,64.0,75.0,1.56,LV
waddan,29.1614,16.139,286.59,60.0,19.0,12.58,LY
provideniya,64.3833,-173.3,255.87,79.0,2.0,7.51,RU
amapa,1.0,-52.0,297.9,85.0,79.0,2.87,BR
kaeo,-35.1,173.7833,292.59,96.0,98.0,3.58,NZ
bassar,9.25,0.7833,307.15,27.0,20.0,3.6,TG
hobyo,5.3505,48.5268,301.06,64.0,88.0,6.92,SO
san lorenzo,-25.3333,-57.5333,299.15,83.0,0.0,1.03,PY
arman,59.7,150.1667,251.84,81.0,100.0,3.11,RU
wamba,8.9333,8.6,310.28,19.0,2.0,2.53,NG
trinidad,-14.8333,-64.9,298.15,88.0,75.0,2.06,BO
puerto suarez,-18.95,-57.8,299.15,94.0,75.0,1.18,BO
qaanaaq,77.484,-69.3632,253.83,88.0,99.0,0.99,GL
nykoping,58.753,17.0079,271.15,69.0,0.0,2.57,SE
krasnoarmeysk,51.0239,45.6969,257.92,92.0,56.0,5.2,RU
severnoye,56.3491,78.3619,269.08,97.0,97.0,5.13,RU
tamworth,52.63399999999999,-1.6959,283.15,94.0,50.0,3.13,GB
matagalpa,12.9256,-85.9175,289.82,93.0,29.0,1.26,NI
buzmeyin,38.0507,58.2056,292.15,37.0,26.0,4.12,TM
mbini,1.574,9.6134,302.81,70.0,92.0,3.25,GQ
aswan,24.0934,32.907,303.36,14.0,0.0,2.78,EG
beloha,-25.1667,45.05,306.22,39.0,87.0,3.79,MG
linares,-35.85,-71.6,289.57,66.0,0.0,1.42,CL
grindavik,63.8424,-22.4338,278.15,93.0,75.0,10.29,IS
okhotsk,59.3833,143.3,257.08,86.0,100.0,1.68,RU
hinton,53.4001,-117.5857,255.15,85.0,100.0,1.03,CA
port hedland,-20.3167,118.5667,302.15,74.0,29.0,4.63,AU
bathsheba,13.2167,-59.5167,299.15,61.0,40.0,9.26,BB
sorong,-0.8833,131.25,300.02,78.0,100.0,4.74,ID
esperance,-33.8667,121.9,299.15,41.0,8.0,6.17,AU
fontem,5.4685,9.8818,306.03,28.0,87.0,2.52,CM
manokwari,-0.8667,134.0833,299.95,81.0,69.0,5.95,ID
marzuq,14.4,46.4667,301.53,15.0,2.0,2.62,YE
suhbaatar,50.2314,106.2078,252.31,84.0,50.0,1.32,MN
ascension,30.2169,-90.9001,274.15,100.0,90.0,4.41,US
albenga,44.0529,8.216000000000001,283.15,40.0,40.0,4.63,IT
kuruman,-27.4524,23.4325,300.37,46.0,0.0,2.68,ZA
york,40.1254,-77.0,274.15,60.0,90.0,2.06,US
ketchikan,55.3422,-131.6461,274.15,100.0,90.0,1.54,US
bousso,10.4795,16.7117,312.58,8.0,22.0,3.9,TD
lewistown,40.5992,-77.5714,271.15,93.0,90.0,1.56,US
atoyac,20.0167,-103.5333,277.15,87.0,1.0,1.54,MX
bud,39.447,-86.1758,262.59,89.0,100.0,5.39,US
tekirdag,40.978,27.5085,274.15,69.0,75.0,9.77,TR
khani,41.9563,42.9566,282.15,87.0,90.0,4.63,GE
greencastle,39.6445,-86.8647,262.59,85.0,90.0,5.14,US
idrinskoye,54.3708,92.1358,265.91,96.0,100.0,0.93,RU
tangzhai,34.4328,116.5911,280.93,61.0,100.0,2.53,CN
buraydah,26.326,43.975,303.15,21.0,75.0,4.12,SA
alugan,12.2188,125.4808,299.19,81.0,90.0,6.73,PH
caravelas,-17.7125,-39.2481,301.25,66.0,81.0,3.17,BR
magadan,59.5667,150.8,252.57,80.0,98.0,2.91,RU
mana,5.6592,-53.7767,299.13,75.0,97.0,6.74,GF
obernai,48.4631,7.481,275.37,64.0,0.0,3.09,FR
algiers,36.7525,3.042,288.15,51.0,20.0,3.09,DZ
shingu,33.7333,135.9833,285.08,62.0,1.0,8.91,JP
naurskaya,43.6519,45.3133,272.15,100.0,90.0,6.0,RU
amur,54.0,128.0,248.12,90.0,100.0,2.0,RU
wahiawa,21.5028,-158.0236,294.82,100.0,20.0,0.97,US
banes,20.9625,-75.7186,295.15,56.0,20.0,3.09,CU
chara,56.9064,118.2631,246.21,79.0,100.0,1.18,RU
peniche,39.3558,-9.3811,290.37,63.0,95.0,5.36,PT
koshurnikovo,54.1667,93.3,266.58,99.0,100.0,1.17,RU
cedar city,37.6775,-113.0619,269.15,74.0,90.0,1.54,US
college,64.8569,-147.8028,242.15,69.0,1.0,0.71,US
mackay,-21.15,149.2,299.15,83.0,90.0,5.66,AU
mareeba,-17.0,145.4333,299.26,94.0,75.0,2.17,AU
beringovskiy,63.05,179.3167,252.66,88.0,92.0,7.9,RU
susehri,40.1644,38.0867,283.43,50.0,38.0,4.06,TR
nanortalik,60.1432,-45.2371,266.83,88.0,0.0,7.37,GL
thinadhoo,0.5333,72.9333,301.33,75.0,33.0,3.99,MV
sistranda,63.7256,8.834,272.15,64.0,0.0,6.69,NO
cabo rojo,18.0866,-67.1457,299.26,77.0,0.0,0.45,PR
mtwara,-10.2667,40.1833,302.15,84.0,75.0,9.77,TZ
kudahuvadhoo,2.6708,72.8944,300.77,77.0,94.0,6.07,MV
puri,19.8,85.85,304.15,35.0,0.0,5.75,IN
manggar,-2.8833,108.2667,299.38,78.0,85.0,5.32,ID
lodja,-3.4833,23.4333,311.31,33.0,49.0,0.51,CD
srednekolymsk,67.45,153.6833,244.62,86.0,92.0,1.57,RU
san antero,9.3741,-75.7589,298.91,86.0,81.0,1.81,CO
darnah,32.767,22.6367,284.41,61.0,62.0,9.75,LY
mendi,-6.1761,143.6513,286.71,98.0,100.0,1.42,PG
ponta delgada,37.7333,-25.6667,287.59,54.0,20.0,8.75,PT
mandal,25.45,74.5667,301.56,15.0,64.0,3.25,IN
vicuna,-30.0319,-70.7081,289.15,82.0,90.0,2.06,CL
rio gallegos,-51.6226,-69.2181,284.15,54.0,0.0,1.54,AR
aracati,-4.5617,-37.7697,303.89,54.0,33.0,4.58,BR
campos,-21.75,-41.3,299.15,83.0,0.0,2.06,BR
sur,22.5667,59.5289,297.82,51.0,0.0,2.67,OM
san quintin,30.4833,-115.95,284.81,80.0,53.0,0.49,MX
valdivia,-39.8142,-73.2459,285.15,71.0,0.0,0.51,CL
shirvan,39.9509,48.8994,282.51,69.0,99.0,3.38,AZ
kenai,60.5544,-151.2583,267.59,62.0,75.0,3.09,US
novikovo,51.1537,37.8879,261.38,91.0,3.0,2.27,RU
mehamn,71.0357,27.8492,270.15,74.0,100.0,4.12,NO
maceio,-9.6658,-35.7353,300.15,83.0,75.0,4.08,BR
agapovka,53.2973,59.1348,260.15,61.0,40.0,3.0,RU
margate,51.3813,1.3862,282.59,86.0,99.0,2.24,GB
maku,39.2911,44.4521,283.27,44.0,33.0,1.52,IR
cockburn town,21.4612,-71.1419,298.15,69.0,40.0,4.12,TC
lac du bonnet,50.2536,-96.0612,240.14,85.0,0.0,2.52,CA
hampton,37.0299,-76.3452,276.15,100.0,90.0,3.6,US
dauriya,49.9333,116.8667,246.32,86.0,83.0,3.4,RU
ladario,-19.0047,-57.6017,299.15,83.0,75.0,1.54,BR
jumla,29.2747,82.1838,279.9,58.0,72.0,1.85,NP
troitsko-pechorsk,62.7084,56.1964,250.72,90.0,100.0,1.4,RU
ordynskoye,54.3656,81.8994,266.9,97.0,100.0,3.28,RU
alcaniz,41.05,-0.1333,281.48,95.0,100.0,2.24,ES
pangnirtung,66.1451,-65.7125,246.15,76.0,20.0,1.8,CA
port macquarie,-31.4333,152.9167,292.04,99.0,88.0,0.45,AU
rio de jesus,7.9844,-81.1631,296.59,74.0,73.0,1.41,PA
matay,28.419,30.7792,295.89,21.0,0.0,4.54,EG
warragul,-38.1667,145.9333,290.93,75.0,100.0,5.81,AU
namibe,-15.1961,12.1522,304.15,55.0,20.0,5.66,AO
nueve de julio,-35.4444,-60.8831,295.93,75.0,5.0,3.13,AR
sao filipe,14.8961,-24.4956,296.52,63.0,85.0,3.0,CV
sisimiut,66.9395,-53.6735,257.37,85.0,84.0,7.17,GL
noumea,-22.2763,166.4572,300.37,100.0,49.0,1.03,NC
iracoubo,5.4802,-53.2011,298.95,75.0,100.0,7.48,GF
edmundston,47.3737,-68.3251,261.15,84.0,74.0,0.51,CA
athabasca,54.7169,-113.2854,246.15,69.0,89.0,3.09,CA
storforshei,66.4043,14.5233,267.59,86.0,0.0,1.54,NO
kulhudhuffushi,6.6221,73.07,300.51,60.0,94.0,2.47,MV
ishigaki,24.3448,124.1572,291.15,68.0,20.0,3.6,JP
puerto madryn,-42.7692,-65.0385,288.09,56.0,13.0,3.62,AR
oistins,13.0667,-59.5333,299.15,61.0,40.0,9.26,BB
port moresby,-9.4431,147.1797,297.15,94.0,90.0,2.57,PG
troitskoye,52.9821,84.6757,266.89,95.0,100.0,2.48,RU
rio grande,-32.035,-52.0986,297.15,78.0,20.0,2.57,BR
mandalgovi,45.7625,106.2708,254.9,82.0,0.0,6.01,MN
kaa-khem,51.6833,94.7333,259.32,90.0,77.0,0.87,RU
coihaique,-45.5752,-72.0662,279.15,87.0,0.0,1.54,CL
togur,58.3631,82.8265,269.78,95.0,100.0,5.0,RU
bima,-8.4667,118.7167,298.27,85.0,87.0,1.15,ID
ranong,9.9658,98.6348,305.15,43.0,40.0,2.57,TH
mosquera,4.7059,-74.2302,283.15,93.0,40.0,2.06,CO
nador,35.174,-2.9287,290.15,72.0,20.0,3.6,MA
tezu,27.9167,96.1667,293.49,40.0,12.0,1.12,IN
jalu,29.0331,21.5482,292.0,48.0,15.0,2.23,LY
ust-nera,64.5667,143.2,242.99,75.0,0.0,0.42,RU
alofi,-19.0595,-169.9187,296.15,100.0,75.0,5.14,NU
gat,31.61,34.7642,291.48,56.0,0.0,0.45,IL
dakar,14.6937,-17.4441,298.15,47.0,93.0,3.09,SN
varkaus,62.3153,27.873,264.82,92.0,0.0,3.6,FI
gigmoto,13.7796,124.39,297.65,81.0,95.0,5.36,PH
morgan city,29.6994,-91.2068,274.82,100.0,90.0,7.2,US
laxou,48.6832,6.148,284.15,60.0,0.0,2.06,FR
diamantino,-14.4086,-56.4461,297.48,86.0,95.0,3.17,BR
cabedelo,-6.9811,-34.8339,299.15,100.0,90.0,0.51,BR
vrangel,42.7297,133.0839,264.67,91.0,100.0,11.9,RU
praya,14.9215,-23.5087,299.15,44.0,0.0,9.26,CV
itoman,26.1247,127.6694,291.15,59.0,40.0,8.23,JP
japura,-0.3167,102.35,299.51,78.0,51.0,1.07,ID
springfield,37.2153,-93.2982,254.26,71.0,90.0,7.72,US
hualmay,-11.0964,-77.6139,294.73,76.0,2.0,2.1,PE
hopatcong,40.9329,-74.6593,271.48,74.0,97.0,2.57,US
los llanos de aridane,28.6585,-17.9182,294.15,78.0,0.0,2.06,ES
havoysund,70.9963,24.6622,272.15,86.0,75.0,5.14,NO
arlit,18.7369,7.3853,305.36,10.0,16.0,1.77,NE
puerto baquerizo moreno,-0.9,-89.6,298.14,83.0,100.0,4.14,EC
sumbe,-11.2061,13.8437,303.15,56.0,0.0,3.09,AO
dicabisagan,17.0818,122.4157,295.65,79.0,82.0,3.04,PH
zherdevka,51.8486,41.4606,258.77,92.0,58.0,3.2,RU
hovd,48.0056,91.6419,265.31,82.0,56.0,0.68,MN
aguimes,27.9054,-15.4461,296.15,38.0,0.0,1.54,ES
sinnar,13.5691,33.5672,311.22,11.0,0.0,2.41,SD
can tho,10.0333,105.7833,298.15,83.0,20.0,3.6,VN
tautira,-17.7333,-149.15,299.15,78.0,40.0,3.6,PF
orzhytsya,49.7918,32.7012,264.73,95.0,65.0,1.53,UA
constantine,36.365,6.6147,280.15,61.0,75.0,1.03,DZ
samarai,-10.6167,150.6667,301.27,76.0,97.0,2.85,PG
kaitangata,-46.2817,169.8464,283.71,67.0,75.0,2.68,NZ
tutoia,-2.7619,-42.2744,302.15,79.0,40.0,3.6,BR
warrensburg,38.7628,-93.7361,252.15,77.0,40.0,6.69,US
plettenberg bay,-34.0527,23.3716,293.62,56.0,32.0,7.64,ZA
ronne,55.1009,14.7066,274.15,69.0,100.0,5.66,DK
omboue,-1.5746,9.2618,303.37,67.0,86.0,4.87,GA
moose factory,51.2585,-80.6094,242.15,76.0,1.0,2.57,CA
nacogdoches,31.6002,-94.6335,264.82,92.0,90.0,6.17,US
garowe,8.4054,48.4845,305.69,15.0,66.0,4.94,SO
chicacao,14.5333,-91.3167,293.15,83.0,0.0,1.59,GT
inndyr,67.0338,14.0276,272.59,69.0,0.0,7.2,NO
ghanzi,-21.5667,21.7833,301.35,45.0,57.0,6.37,BW
ust-tsilma,65.441,52.1498,249.37,89.0,100.0,2.61,RU
westport,41.1415,-73.3579,274.15,60.0,90.0,4.12,US
byron bay,-28.65,153.6167,296.15,68.0,75.0,5.66,AU
honiara,-9.4333,159.95,299.55,81.0,88.0,1.07,SB
inhambane,-23.865,35.3833,301.15,83.0,75.0,4.12,MZ
juba,4.8517,31.5825,314.37,14.0,36.0,3.12,SS
chapais,49.7834,-74.8492,256.15,85.0,90.0,2.06,CA
shafranovo,53.9667,54.7667,254.62,92.0,78.0,4.3,RU
gizo,-8.103,156.8419,301.49,76.0,98.0,2.71,SB
mwense,-10.3845,28.698,300.32,73.0,74.0,0.96,ZM
marsh harbour,26.5412,-77.0636,296.89,86.0,0.0,7.54,BS
vaitape,-16.5167,-151.75,300.6,76.0,91.0,4.92,PF
saint-joseph,-21.3667,55.6167,302.15,65.0,75.0,2.06,RE
hit,33.6416,42.8251,298.03,23.0,7.0,6.18,IQ
shache,38.4167,77.2406,281.67,46.0,13.0,3.6,CN
orotukan,62.2667,151.7,240.33,83.0,0.0,0.58,RU
nabire,-3.3667,135.4833,299.28,83.0,100.0,0.86,ID
codrington,-38.2667,141.9667,288.89,84.0,60.0,2.39,AU
phuket,8.0,98.25,304.26,65.0,20.0,3.09,TH
ypsonas,34.6884,32.9574,292.15,59.0,20.0,7.2,CY
rawson,-43.3002,-65.1023,288.0,54.0,66.0,2.85,AR
zalantun,48.0,122.7167,252.86,81.0,92.0,3.41,CN
ilulissat,69.2167,-51.1,260.15,56.0,75.0,5.66,GL
cayenne,4.9333,-52.3333,301.15,69.0,20.0,7.2,GF
saint anthony,45.0205,-93.218,246.15,69.0,1.0,1.54,US
san borja,-14.8167,-66.85,295.83,97.0,100.0,2.42,BO
itarema,-2.9248,-39.9167,301.47,73.0,52.0,4.8,BR
moundou,8.5667,16.0833,309.15,26.0,0.0,3.09,TD
malindi,-3.2175,40.1191,301.94,66.0,35.0,7.22,KE
nortelandia,-14.4547,-56.8028,296.91,89.0,100.0,2.07,BR
tessalit,20.1986,1.0114,306.29,9.0,40.0,5.15,ML
zhangye,38.9342,100.4517,274.42,71.0,97.0,1.47,CN
dunedin,-45.8742,170.5036,284.26,75.0,76.0,1.79,NZ
formosa,-26.1775,-58.1781,300.15,74.0,0.0,2.57,AR
lewisporte,49.2499,-55.0482,266.15,79.0,40.0,5.14,CA
nome,64.5011,-165.4064,265.15,49.0,40.0,5.14,US
havre-saint-pierre,50.2334,-63.5986,253.15,77.0,1.0,1.54,CA
jiaozuo,35.2397,113.2331,281.76,42.0,83.0,2.69,CN
saeby,57.3319,10.5225,273.15,80.0,75.0,6.69,DK
nago,26.5881,127.9761,290.93,63.0,75.0,5.66,JP
san miguel,13.4833,-88.1833,293.25,81.0,0.0,0.91,SV
kimitsu,35.3253,139.8911,288.71,82.0,20.0,1.54,JP
sakakah,29.9697,40.2064,301.15,18.0,0.0,5.14,SA
san juan,-31.5375,-68.5364,292.97,67.0,58.0,6.31,AR
abashiri,44.0213,144.2697,274.26,100.0,75.0,1.54,JP
hays,30.0502,-98.0336,259.82,28.0,97.0,0.45,US
anadyr,64.75,177.4833,254.15,71.0,0.0,9.0,RU
evensk,61.95,159.2333,259.78,94.0,100.0,3.61,RU
mazatlan,23.2167,-106.4167,291.48,94.0,90.0,2.57,MX
pano aqil,27.8569,69.1116,302.15,39.0,0.0,2.14,PK
mount gambier,-37.8333,140.7667,287.15,88.0,53.0,2.06,AU
ayr,55.4627,-4.6339,282.15,93.0,75.0,6.69,GB
lorengau,-2.0226,147.2712,300.72,80.0,100.0,9.15,PG
dharchula,29.85,80.5333,287.85,42.0,73.0,2.1,IN
marienburg,54.0359,19.0266,274.82,68.0,13.0,2.85,PL
tunceli,39.1083,39.5471,290.15,42.0,40.0,5.14,TR
hami,42.8,93.45,275.31,71.0,0.0,2.27,CN
onalaska,43.8844,-91.2351,246.15,63.0,1.0,2.57,US
miles city,46.4083,-105.8406,252.15,59.0,20.0,4.12,US
farmington,36.7281,-108.2187,266.15,79.0,90.0,2.57,US
keti bandar,24.1447,67.4497,297.31,68.0,0.0,7.04,PK
mangai,-4.05,19.5333,306.47,46.0,100.0,0.73,CD
qasigiannguit,68.8193,-51.1922,260.15,56.0,75.0,5.66,GL
naze,28.3667,129.4833,287.7,77.0,3.0,8.55,JP
mogadishu,2.0371,45.3438,302.15,61.0,20.0,9.26,SO
tigil,57.8,158.6667,243.78,87.0,37.0,0.81,RU
port-gentil,-0.7193,8.7815,301.15,83.0,40.0,4.63,GA
pirenopolis,-15.8525,-48.9592,294.15,88.0,75.0,1.54,BR
ormara,25.2088,64.6357,296.36,69.0,0.0,6.78,PK
manta,-0.95,-80.7333,298.15,78.0,90.0,2.06,EC
dingle,10.9995,122.6711,297.57,87.0,100.0,2.86,PH
pendleton,45.6721,-118.7886,267.59,93.0,90.0,1.54,US
mogilno,52.6581,17.9558,268.15,89.0,0.0,2.94,PL
nauta,-4.5061,-73.5757,297.02,89.0,100.0,0.81,PE
asau,46.4333,26.4,270.93,59.0,96.0,2.2,RO
punta alta,-38.8759,-62.0736,292.47,74.0,95.0,8.03,AR
olavarria,-36.8927,-60.3225,292.59,84.0,93.0,2.68,AR
port keats,-14.25,129.55,301.2,84.0,100.0,2.79,AU
spearfish,44.4908,-103.8594,250.93,70.0,1.0,2.06,US
pyu,18.4833,96.4333,299.18,23.0,0.0,1.94,MM
doha,25.2867,51.5333,299.82,36.0,0.0,4.63,QA
payo,-3.7508,103.6372,297.63,93.0,91.0,0.84,ID
yuli,9.6989,10.2744,310.41,9.0,0.0,3.68,NG
kungurtug,50.5994,97.5228,263.81,93.0,98.0,0.66,RU
tanete,-3.9443,119.7848,299.25,77.0,64.0,1.66,ID
guanica,17.9716,-66.908,298.15,64.0,1.0,0.45,PR
koslan,63.4564,48.8989,251.23,88.0,100.0,3.29,RU
ambon,-3.6954,128.1814,299.15,89.0,40.0,3.6,ID
xining,36.6167,101.7667,274.51,68.0,100.0,1.04,CN
hanna,51.6334,-111.9018,245.93,79.0,100.0,0.89,CA
bang saphan,11.2126,99.5117,301.15,74.0,0.0,2.06,TH
mwingi,-0.9344,38.0601,303.53,37.0,96.0,4.33,KE
sinnamary,5.3833,-52.95,298.98,76.0,99.0,7.39,GF
bagdarin,54.4333,113.6,246.19,81.0,7.0,2.19,RU
dali,25.7,100.1833,284.52,50.0,8.0,3.34,CN
teknaf,20.8624,92.3058,296.59,60.0,0.0,5.5,BD
cambrils,41.0748,1.0524,283.15,93.0,90.0,1.03,ES
finschhafen,-6.6024,147.8681,301.3,78.0,100.0,4.45,PG
lompoc,34.6391,-120.4579,284.15,87.0,1.0,3.09,US
high rock,26.6208,-78.2833,297.15,88.0,75.0,3.6,BS
mmabatho,-25.85,25.6333,303.15,48.0,40.0,5.14,ZA
bonthe,7.5264,-12.505,303.25,66.0,33.0,3.62,SL
mwinilunga,-11.7358,24.4293,301.6,44.0,75.0,2.67,ZM
quelimane,-17.8786,36.8883,308.15,63.0,40.0,2.57,MZ
praia da vitoria,38.7333,-27.0667,286.15,71.0,40.0,6.48,PT
lerwick,60.1545,-1.1494,281.15,87.0,20.0,4.63,GB
qaqortoq,60.7167,-46.0333,269.15,86.0,90.0,3.6,GL
vigrestad,58.5667,5.7,276.15,70.0,75.0,8.75,NO
